[
{
    "model": "locations.location",
    "pk": 1,
    "fields": {
        "created_at": "2024-11-21T15:32:25.352Z",
        "updated_at": "2024-11-21T15:32:25.352Z",
        "location_type": "city",
        "city": 1,
        "village": null,
        "latitude": "49.078060",
        "longitude": "27.683060",
        "location_name": "Бар",
        "region_name": "Вінницька область"
    }
},
{
    "model": "locations.location",
    "pk": 2,
    "fields": {
        "created_at": "2024-11-21T15:32:25.368Z",
        "updated_at": "2024-11-21T15:32:25.368Z",
        "location_type": "city",
        "city": 2,
        "village": null,
        "latitude": "48.372780",
        "longitude": "29.532500",
        "location_name": "Бершадь",
        "region_name": "Вінницька область"
    }
},
{
    "model": "locations.location",
    "pk": 3,
    "fields": {
        "created_at": "2024-11-21T15:32:25.377Z",
        "updated_at": "2024-11-21T15:32:25.377Z",
        "location_type": "city",
        "city": 3,
        "village": null,
        "latitude": "49.237220",
        "longitude": "28.467220",
        "location_name": "Вінниця",
        "region_name": "Вінницька область"
    }
},
{
    "model": "locations.location",
    "pk": 4,
    "fields": {
        "created_at": "2024-11-21T15:32:25.385Z",
        "updated_at": "2024-11-21T15:32:25.385Z",
        "location_type": "city",
        "city": 4,
        "village": null,
        "latitude": "48.810280",
        "longitude": "29.384170",
        "location_name": "Гайсин",
        "region_name": "Вінницька область"
    }
},
{
    "model": "locations.location",
    "pk": 5,
    "fields": {
        "created_at": "2024-11-21T15:32:25.393Z",
        "updated_at": "2024-11-21T15:32:25.393Z",
        "location_type": "city",
        "city": 5,
        "village": null,
        "latitude": "49.091110",
        "longitude": "28.348610",
        "location_name": "Гнівань",
        "region_name": "Вінницька область"
    }
},
{
    "model": "locations.location",
    "pk": 6,
    "fields": {
        "created_at": "2024-11-21T15:32:25.401Z",
        "updated_at": "2024-11-21T15:32:25.401Z",
        "location_type": "city",
        "city": 6,
        "village": null,
        "latitude": "49.036940",
        "longitude": "28.103610",
        "location_name": "Жмеринка",
        "region_name": "Вінницька область"
    }
},
{
    "model": "locations.location",
    "pk": 7,
    "fields": {
        "created_at": "2024-11-21T15:32:25.410Z",
        "updated_at": "2024-11-21T15:32:25.410Z",
        "location_type": "city",
        "city": 7,
        "village": null,
        "latitude": "49.105280",
        "longitude": "29.208060",
        "location_name": "Іллінці",
        "region_name": "Вінницька область"
    }
},
{
    "model": "locations.location",
    "pk": 8,
    "fields": {
        "created_at": "2024-11-21T15:32:25.418Z",
        "updated_at": "2024-11-21T15:32:25.418Z",
        "location_type": "city",
        "city": 8,
        "village": null,
        "latitude": "49.447220",
        "longitude": "28.523060",
        "location_name": "Калинівка",
        "region_name": "Вінницька область"
    }
},
{
    "model": "locations.location",
    "pk": 9,
    "fields": {
        "created_at": "2024-11-21T15:32:25.426Z",
        "updated_at": "2024-11-21T15:32:25.426Z",
        "location_type": "city",
        "city": 9,
        "village": null,
        "latitude": "49.716670",
        "longitude": "28.833330",
        "location_name": "Козятин",
        "region_name": "Вінницька область"
    }
},
{
    "model": "locations.location",
    "pk": 10,
    "fields": {
        "created_at": "2024-11-21T15:32:25.433Z",
        "updated_at": "2024-11-21T15:32:25.433Z",
        "location_type": "city",
        "city": 10,
        "village": null,
        "latitude": "48.689720",
        "longitude": "29.241670",
        "location_name": "Ладижин",
        "region_name": "Вінницька область"
    }
},
{
    "model": "locations.location",
    "pk": 11,
    "fields": {
        "created_at": "2024-11-21T15:32:25.441Z",
        "updated_at": "2024-11-21T15:32:25.441Z",
        "location_type": "city",
        "city": 11,
        "village": null,
        "latitude": "49.216110",
        "longitude": "29.056110",
        "location_name": "Липовець",
        "region_name": "Вінницька область"
    }
},
{
    "model": "locations.location",
    "pk": 12,
    "fields": {
        "created_at": "2024-11-21T15:32:25.449Z",
        "updated_at": "2024-11-21T15:32:25.449Z",
        "location_type": "city",
        "city": 12,
        "village": null,
        "latitude": "48.455000",
        "longitude": "27.808060",
        "location_name": "Могилів",
        "region_name": "Вінницька область"
    }
},
{
    "model": "locations.location",
    "pk": 13,
    "fields": {
        "created_at": "2024-11-21T15:32:25.456Z",
        "updated_at": "2024-11-21T15:32:25.456Z",
        "location_type": "city",
        "city": 13,
        "village": null,
        "latitude": "48.979440",
        "longitude": "28.843890",
        "location_name": "Немирів",
        "region_name": "Вінницька область"
    }
},
{
    "model": "locations.location",
    "pk": 14,
    "fields": {
        "created_at": "2024-11-21T15:32:25.464Z",
        "updated_at": "2024-11-21T15:32:25.464Z",
        "location_type": "city",
        "city": 14,
        "village": null,
        "latitude": "49.486940",
        "longitude": "29.273330",
        "location_name": "Погребище",
        "region_name": "Вінницька область"
    }
},
{
    "model": "locations.location",
    "pk": 15,
    "fields": {
        "created_at": "2024-11-21T15:32:25.472Z",
        "updated_at": "2024-11-21T15:32:25.472Z",
        "location_type": "city",
        "city": 15,
        "village": null,
        "latitude": "48.674440",
        "longitude": "28.849720",
        "location_name": "Тульчин",
        "region_name": "Вінницька область"
    }
},
{
    "model": "locations.location",
    "pk": 16,
    "fields": {
        "created_at": "2024-11-21T15:32:25.481Z",
        "updated_at": "2024-11-21T15:32:25.481Z",
        "location_type": "city",
        "city": 16,
        "village": null,
        "latitude": "49.556940",
        "longitude": "27.957220",
        "location_name": "Хмільник",
        "region_name": "Вінницька область"
    }
},
{
    "model": "locations.location",
    "pk": 17,
    "fields": {
        "created_at": "2024-11-21T15:32:25.489Z",
        "updated_at": "2024-11-21T15:32:25.489Z",
        "location_type": "city",
        "city": 17,
        "village": null,
        "latitude": "48.755280",
        "longitude": "28.078890",
        "location_name": "Шаргород",
        "region_name": "Вінницька область"
    }
},
{
    "model": "locations.location",
    "pk": 18,
    "fields": {
        "created_at": "2024-11-21T15:32:25.497Z",
        "updated_at": "2024-11-21T15:32:25.497Z",
        "location_type": "city",
        "city": 18,
        "village": null,
        "latitude": "48.245000",
        "longitude": "28.277780",
        "location_name": "Ямпіль",
        "region_name": "Вінницька область"
    }
},
{
    "model": "locations.location",
    "pk": 19,
    "fields": {
        "created_at": "2024-11-21T15:32:25.509Z",
        "updated_at": "2024-11-21T15:32:25.509Z",
        "location_type": "city",
        "city": 19,
        "village": null,
        "latitude": "50.357222",
        "longitude": "25.112222",
        "location_name": "Берестечко",
        "region_name": "Волинська область"
    }
},
{
    "model": "locations.location",
    "pk": 20,
    "fields": {
        "created_at": "2024-11-21T15:32:25.516Z",
        "updated_at": "2024-11-21T15:32:25.516Z",
        "location_type": "city",
        "city": 20,
        "village": null,
        "latitude": "50.841389",
        "longitude": "24.322222",
        "location_name": "Володимир-Волинський",
        "region_name": "Волинська область"
    }
},
{
    "model": "locations.location",
    "pk": 21,
    "fields": {
        "created_at": "2024-11-21T15:32:25.524Z",
        "updated_at": "2024-11-21T15:32:25.524Z",
        "location_type": "city",
        "city": 21,
        "village": null,
        "latitude": "50.499444",
        "longitude": "24.765000",
        "location_name": "Горохів",
        "region_name": "Волинська область"
    }
},
{
    "model": "locations.location",
    "pk": 22,
    "fields": {
        "created_at": "2024-11-21T15:32:25.533Z",
        "updated_at": "2024-11-21T15:32:25.533Z",
        "location_type": "city",
        "city": 22,
        "village": null,
        "latitude": "51.620000",
        "longitude": "24.965278",
        "location_name": "Камінь-Каширський",
        "region_name": "Волинська область"
    }
},
{
    "model": "locations.location",
    "pk": 23,
    "fields": {
        "created_at": "2024-11-21T15:32:25.542Z",
        "updated_at": "2024-11-21T15:32:25.542Z",
        "location_type": "city",
        "city": 23,
        "village": null,
        "latitude": "50.833056",
        "longitude": "25.461389",
        "location_name": "Ківерці",
        "region_name": "Волинська область"
    }
},
{
    "model": "locations.location",
    "pk": 24,
    "fields": {
        "created_at": "2024-11-21T15:32:25.551Z",
        "updated_at": "2024-11-21T15:32:25.551Z",
        "location_type": "city",
        "city": 24,
        "village": null,
        "latitude": "51.219167",
        "longitude": "24.687222",
        "location_name": "Ковель",
        "region_name": "Волинська область"
    }
},
{
    "model": "locations.location",
    "pk": 25,
    "fields": {
        "created_at": "2024-11-21T15:32:25.559Z",
        "updated_at": "2024-11-21T15:32:25.559Z",
        "location_type": "city",
        "city": 25,
        "village": null,
        "latitude": "50.748889",
        "longitude": "25.324444",
        "location_name": "Луцьк",
        "region_name": "Волинська область"
    }
},
{
    "model": "locations.location",
    "pk": 26,
    "fields": {
        "created_at": "2024-11-21T15:32:25.569Z",
        "updated_at": "2024-11-21T15:32:25.569Z",
        "location_type": "city",
        "city": 26,
        "village": null,
        "latitude": "51.223611",
        "longitude": "24.032778",
        "location_name": "Любомль",
        "region_name": "Волинська область"
    }
},
{
    "model": "locations.location",
    "pk": 27,
    "fields": {
        "created_at": "2024-11-21T15:32:25.578Z",
        "updated_at": "2024-11-21T15:32:25.578Z",
        "location_type": "city",
        "city": 27,
        "village": null,
        "latitude": "50.727222",
        "longitude": "24.165000",
        "location_name": "Нововолинськ",
        "region_name": "Волинська область"
    }
},
{
    "model": "locations.location",
    "pk": 28,
    "fields": {
        "created_at": "2024-11-21T15:32:25.587Z",
        "updated_at": "2024-11-21T15:32:25.587Z",
        "location_type": "city",
        "city": 28,
        "village": null,
        "latitude": "50.912778",
        "longitude": "25.270000",
        "location_name": "Рожище",
        "region_name": "Волинська область"
    }
},
{
    "model": "locations.location",
    "pk": 29,
    "fields": {
        "created_at": "2024-11-21T15:32:25.596Z",
        "updated_at": "2024-11-21T15:32:25.596Z",
        "location_type": "city",
        "city": 29,
        "village": null,
        "latitude": "50.860000",
        "longitude": "24.156944",
        "location_name": "Устилуг",
        "region_name": "Волинська область"
    }
},
{
    "model": "locations.location",
    "pk": 30,
    "fields": {
        "created_at": "2024-11-21T15:32:25.610Z",
        "updated_at": "2024-11-21T15:32:25.610Z",
        "location_type": "city",
        "city": 30,
        "village": null,
        "latitude": "47.659444",
        "longitude": "33.716667",
        "location_name": "Апостолове",
        "region_name": "Дніпропетровська область"
    }
},
{
    "model": "locations.location",
    "pk": 31,
    "fields": {
        "created_at": "2024-11-21T15:32:25.618Z",
        "updated_at": "2024-11-21T15:32:25.618Z",
        "location_type": "city",
        "city": 31,
        "village": null,
        "latitude": "48.485278",
        "longitude": "34.254444",
        "location_name": "Верхівцеве",
        "region_name": "Дніпропетровська область"
    }
},
{
    "model": "locations.location",
    "pk": 32,
    "fields": {
        "created_at": "2024-11-21T15:32:25.626Z",
        "updated_at": "2024-11-21T15:32:25.626Z",
        "location_type": "city",
        "city": 32,
        "village": null,
        "latitude": "48.642500",
        "longitude": "34.340278",
        "location_name": "Верхньодніпровськ",
        "region_name": "Дніпропетровська область"
    }
},
{
    "model": "locations.location",
    "pk": 33,
    "fields": {
        "created_at": "2024-11-21T15:32:25.635Z",
        "updated_at": "2024-11-21T15:32:25.635Z",
        "location_type": "city",
        "city": 33,
        "village": null,
        "latitude": "48.478056",
        "longitude": "34.028056",
        "location_name": "Вільногірськ",
        "region_name": "Дніпропетровська область"
    }
},
{
    "model": "locations.location",
    "pk": 34,
    "fields": {
        "created_at": "2024-11-21T15:32:25.643Z",
        "updated_at": "2024-11-21T15:32:25.643Z",
        "location_type": "city",
        "city": 34,
        "village": null,
        "latitude": "48.466111",
        "longitude": "35.025278",
        "location_name": "Дніпро",
        "region_name": "Дніпропетровська область"
    }
},
{
    "model": "locations.location",
    "pk": 35,
    "fields": {
        "created_at": "2024-11-21T15:32:25.651Z",
        "updated_at": "2024-11-21T15:32:25.651Z",
        "location_type": "city",
        "city": 35,
        "village": null,
        "latitude": "48.366389",
        "longitude": "33.502500",
        "location_name": "Жовті Води",
        "region_name": "Дніпропетровська область"
    }
},
{
    "model": "locations.location",
    "pk": 36,
    "fields": {
        "created_at": "2024-11-21T15:32:25.659Z",
        "updated_at": "2024-11-21T15:32:25.659Z",
        "location_type": "city",
        "city": 36,
        "village": null,
        "latitude": "47.566389",
        "longitude": "33.646389",
        "location_name": "Зеленодольськ",
        "region_name": "Дніпропетровська область"
    }
},
{
    "model": "locations.location",
    "pk": 37,
    "fields": {
        "created_at": "2024-11-21T15:32:25.667Z",
        "updated_at": "2024-11-21T15:32:25.667Z",
        "location_type": "city",
        "city": 37,
        "village": null,
        "latitude": "48.528889",
        "longitude": "34.597222",
        "location_name": "Кам'янське",
        "region_name": "Дніпропетровська область"
    }
},
{
    "model": "locations.location",
    "pk": 38,
    "fields": {
        "created_at": "2024-11-21T15:32:25.675Z",
        "updated_at": "2024-11-21T15:32:25.675Z",
        "location_type": "city",
        "city": 38,
        "village": null,
        "latitude": "47.908611",
        "longitude": "33.348889",
        "location_name": "Кривий Ріг",
        "region_name": "Дніпропетровська область"
    }
},
{
    "model": "locations.location",
    "pk": 39,
    "fields": {
        "created_at": "2024-11-21T15:32:25.684Z",
        "updated_at": "2024-11-21T15:32:25.684Z",
        "location_type": "city",
        "city": 39,
        "village": null,
        "latitude": "47.644722",
        "longitude": "34.604167",
        "location_name": "Марганець",
        "region_name": "Дніпропетровська область"
    }
},
{
    "model": "locations.location",
    "pk": 40,
    "fields": {
        "created_at": "2024-11-21T15:32:25.693Z",
        "updated_at": "2024-11-21T15:32:25.693Z",
        "location_type": "city",
        "city": 40,
        "village": null,
        "latitude": "47.577222",
        "longitude": "34.357500",
        "location_name": "Нікополь",
        "region_name": "Дніпропетровська область"
    }
},
{
    "model": "locations.location",
    "pk": 41,
    "fields": {
        "created_at": "2024-11-21T15:32:25.701Z",
        "updated_at": "2024-11-21T15:32:25.701Z",
        "location_type": "city",
        "city": 41,
        "village": null,
        "latitude": "48.637778",
        "longitude": "35.228889",
        "location_name": "Новомосковськ",
        "region_name": "Дніпропетровська область"
    }
},
{
    "model": "locations.location",
    "pk": 42,
    "fields": {
        "created_at": "2024-11-21T15:32:25.709Z",
        "updated_at": "2024-11-21T15:32:25.709Z",
        "location_type": "city",
        "city": 42,
        "village": null,
        "latitude": "48.520000",
        "longitude": "35.870000",
        "location_name": "Павлоград",
        "region_name": "Дніпропетровська область"
    }
},
{
    "model": "locations.location",
    "pk": 43,
    "fields": {
        "created_at": "2024-11-21T15:32:25.716Z",
        "updated_at": "2024-11-21T15:32:25.716Z",
        "location_type": "city",
        "city": 43,
        "village": null,
        "latitude": "49.014444",
        "longitude": "35.365000",
        "location_name": "Перещепине",
        "region_name": "Дніпропетровська область"
    }
},
{
    "model": "locations.location",
    "pk": 44,
    "fields": {
        "created_at": "2024-11-21T15:32:25.724Z",
        "updated_at": "2024-11-21T15:32:25.724Z",
        "location_type": "city",
        "city": 44,
        "village": null,
        "latitude": "48.347500",
        "longitude": "36.401667",
        "location_name": "Першотравенськ",
        "region_name": "Дніпропетровська область"
    }
},
{
    "model": "locations.location",
    "pk": 45,
    "fields": {
        "created_at": "2024-11-21T15:32:25.733Z",
        "updated_at": "2024-11-21T15:32:25.733Z",
        "location_type": "city",
        "city": 45,
        "village": null,
        "latitude": "48.575000",
        "longitude": "35.102222",
        "location_name": "Підгородне",
        "region_name": "Дніпропетровська область"
    }
},
{
    "model": "locations.location",
    "pk": 46,
    "fields": {
        "created_at": "2024-11-21T15:32:25.741Z",
        "updated_at": "2024-11-21T15:32:25.741Z",
        "location_type": "city",
        "city": 46,
        "village": null,
        "latitude": "48.413056",
        "longitude": "33.702778",
        "location_name": "П'ятихатки",
        "region_name": "Дніпропетровська область"
    }
},
{
    "model": "locations.location",
    "pk": 47,
    "fields": {
        "created_at": "2024-11-21T15:32:25.748Z",
        "updated_at": "2024-11-21T15:32:25.748Z",
        "location_type": "city",
        "city": 47,
        "village": null,
        "latitude": "47.653333",
        "longitude": "34.084167",
        "location_name": "Покров",
        "region_name": "Дніпропетровська область"
    }
},
{
    "model": "locations.location",
    "pk": 48,
    "fields": {
        "created_at": "2024-11-21T15:32:25.757Z",
        "updated_at": "2024-11-21T15:32:25.757Z",
        "location_type": "city",
        "city": 48,
        "village": null,
        "latitude": "48.317222",
        "longitude": "35.511944",
        "location_name": "Синельникове",
        "region_name": "Дніпропетровська область"
    }
},
{
    "model": "locations.location",
    "pk": 49,
    "fields": {
        "created_at": "2024-11-21T15:32:25.767Z",
        "updated_at": "2024-11-21T15:32:25.767Z",
        "location_type": "city",
        "city": 49,
        "village": null,
        "latitude": "48.524444",
        "longitude": "36.082500",
        "location_name": "Тернівка",
        "region_name": "Дніпропетровська область"
    }
},
{
    "model": "locations.location",
    "pk": 50,
    "fields": {
        "created_at": "2024-11-21T15:32:25.779Z",
        "updated_at": "2024-11-21T15:32:25.779Z",
        "location_type": "city",
        "city": 50,
        "village": null,
        "latitude": "48.020500",
        "longitude": "37.652500",
        "location_name": "Авдіївка",
        "region_name": "Донецька область"
    }
},
{
    "model": "locations.location",
    "pk": 51,
    "fields": {
        "created_at": "2024-11-21T15:32:25.788Z",
        "updated_at": "2024-11-21T15:32:25.788Z",
        "location_type": "city",
        "city": 51,
        "village": null,
        "latitude": "48.578800",
        "longitude": "38.046300",
        "location_name": "Бахмут",
        "region_name": "Донецька область"
    }
},
{
    "model": "locations.location",
    "pk": 52,
    "fields": {
        "created_at": "2024-11-21T15:32:25.797Z",
        "updated_at": "2024-11-21T15:32:25.797Z",
        "location_type": "city",
        "city": 52,
        "village": null,
        "latitude": "48.334100",
        "longitude": "37.710400",
        "location_name": "Вугледар",
        "region_name": "Донецька область"
    }
},
{
    "model": "locations.location",
    "pk": 53,
    "fields": {
        "created_at": "2024-11-21T15:32:25.806Z",
        "updated_at": "2024-11-21T15:32:25.806Z",
        "location_type": "city",
        "city": 53,
        "village": null,
        "latitude": "48.298500",
        "longitude": "38.038200",
        "location_name": "Горлівка",
        "region_name": "Донецька область"
    }
},
{
    "model": "locations.location",
    "pk": 54,
    "fields": {
        "created_at": "2024-11-21T15:32:25.813Z",
        "updated_at": "2024-11-21T15:32:25.813Z",
        "location_type": "city",
        "city": 54,
        "village": null,
        "latitude": "48.317300",
        "longitude": "38.386900",
        "location_name": "Дебальцеве",
        "region_name": "Донецька область"
    }
},
{
    "model": "locations.location",
    "pk": 55,
    "fields": {
        "created_at": "2024-11-21T15:32:25.821Z",
        "updated_at": "2024-11-21T15:32:25.821Z",
        "location_type": "city",
        "city": 55,
        "village": null,
        "latitude": "48.675800",
        "longitude": "38.445300",
        "location_name": "Торецьк",
        "region_name": "Донецька область"
    }
},
{
    "model": "locations.location",
    "pk": 56,
    "fields": {
        "created_at": "2024-11-21T15:32:25.831Z",
        "updated_at": "2024-11-21T15:32:25.831Z",
        "location_type": "city",
        "city": 56,
        "village": null,
        "latitude": "48.389400",
        "longitude": "37.523400",
        "location_name": "Мирноград",
        "region_name": "Донецька область"
    }
},
{
    "model": "locations.location",
    "pk": 57,
    "fields": {
        "created_at": "2024-11-21T15:32:25.839Z",
        "updated_at": "2024-11-21T15:32:25.839Z",
        "location_type": "city",
        "city": 57,
        "village": null,
        "latitude": "48.302100",
        "longitude": "37.388400",
        "location_name": "Добропілля",
        "region_name": "Донецька область"
    }
},
{
    "model": "locations.location",
    "pk": 58,
    "fields": {
        "created_at": "2024-11-21T15:32:25.847Z",
        "updated_at": "2024-11-21T15:32:25.847Z",
        "location_type": "city",
        "city": 58,
        "village": null,
        "latitude": "48.120300",
        "longitude": "37.539400",
        "location_name": "Докучаєвськ",
        "region_name": "Донецька область"
    }
},
{
    "model": "locations.location",
    "pk": 59,
    "fields": {
        "created_at": "2024-11-21T15:32:25.856Z",
        "updated_at": "2024-11-21T15:32:25.856Z",
        "location_type": "city",
        "city": 59,
        "village": null,
        "latitude": "48.015900",
        "longitude": "37.802900",
        "location_name": "Донецьк",
        "region_name": "Донецька область"
    }
},
{
    "model": "locations.location",
    "pk": 60,
    "fields": {
        "created_at": "2024-11-21T15:32:25.865Z",
        "updated_at": "2024-11-21T15:32:25.865Z",
        "location_type": "city",
        "city": 60,
        "village": null,
        "latitude": "48.687200",
        "longitude": "37.177000",
        "location_name": "Дружківка",
        "region_name": "Донецька область"
    }
},
{
    "model": "locations.location",
    "pk": 61,
    "fields": {
        "created_at": "2024-11-21T15:32:25.873Z",
        "updated_at": "2024-11-21T15:32:25.873Z",
        "location_type": "city",
        "city": 61,
        "village": null,
        "latitude": "48.028600",
        "longitude": "38.474700",
        "location_name": "Єнакієве",
        "region_name": "Донецька область"
    }
},
{
    "model": "locations.location",
    "pk": 62,
    "fields": {
        "created_at": "2024-11-21T15:32:25.881Z",
        "updated_at": "2024-11-21T15:32:25.881Z",
        "location_type": "city",
        "city": 62,
        "village": null,
        "latitude": "48.137700",
        "longitude": "38.013500",
        "location_name": "Жданівка",
        "region_name": "Донецька область"
    }
},
{
    "model": "locations.location",
    "pk": 63,
    "fields": {
        "created_at": "2024-11-21T15:32:25.889Z",
        "updated_at": "2024-11-21T15:32:25.889Z",
        "location_type": "city",
        "city": 63,
        "village": null,
        "latitude": "48.383600",
        "longitude": "38.535600",
        "location_name": "Хрестівка",
        "region_name": "Донецька область"
    }
},
{
    "model": "locations.location",
    "pk": 64,
    "fields": {
        "created_at": "2024-11-21T15:32:25.897Z",
        "updated_at": "2024-11-21T15:32:25.897Z",
        "location_type": "city",
        "city": 64,
        "village": null,
        "latitude": "48.776000",
        "longitude": "37.640100",
        "location_name": "Костянтинівка",
        "region_name": "Донецька область"
    }
},
{
    "model": "locations.location",
    "pk": 65,
    "fields": {
        "created_at": "2024-11-21T15:32:25.907Z",
        "updated_at": "2024-11-21T15:32:25.907Z",
        "location_type": "city",
        "city": 65,
        "village": null,
        "latitude": "48.707500",
        "longitude": "37.589500",
        "location_name": "Краматорськ",
        "region_name": "Донецька область"
    }
},
{
    "model": "locations.location",
    "pk": 66,
    "fields": {
        "created_at": "2024-11-21T15:32:25.916Z",
        "updated_at": "2024-11-21T15:32:25.916Z",
        "location_type": "city",
        "city": 66,
        "village": null,
        "latitude": "48.750700",
        "longitude": "37.730000",
        "location_name": "Лиман",
        "region_name": "Донецька область"
    }
},
{
    "model": "locations.location",
    "pk": 67,
    "fields": {
        "created_at": "2024-11-21T15:32:25.924Z",
        "updated_at": "2024-11-21T15:32:25.924Z",
        "location_type": "city",
        "city": 67,
        "village": null,
        "latitude": "48.310300",
        "longitude": "37.518600",
        "location_name": "Покровськ",
        "region_name": "Донецька область"
    }
},
{
    "model": "locations.location",
    "pk": 68,
    "fields": {
        "created_at": "2024-11-21T15:32:25.932Z",
        "updated_at": "2024-11-21T15:32:25.932Z",
        "location_type": "city",
        "city": 68,
        "village": null,
        "latitude": "48.026300",
        "longitude": "37.963300",
        "location_name": "Макіївка",
        "region_name": "Донецька область"
    }
},
{
    "model": "locations.location",
    "pk": 69,
    "fields": {
        "created_at": "2024-11-21T15:32:25.940Z",
        "updated_at": "2024-11-21T15:32:25.940Z",
        "location_type": "city",
        "city": 69,
        "village": null,
        "latitude": "47.097100",
        "longitude": "37.543500",
        "location_name": "Маріуполь",
        "region_name": "Донецька область"
    }
},
{
    "model": "locations.location",
    "pk": 70,
    "fields": {
        "created_at": "2024-11-21T15:32:25.949Z",
        "updated_at": "2024-11-21T15:32:25.949Z",
        "location_type": "city",
        "city": 70,
        "village": null,
        "latitude": "48.469100",
        "longitude": "37.686700",
        "location_name": "Новогродівка",
        "region_name": "Донецька область"
    }
},
{
    "model": "locations.location",
    "pk": 71,
    "fields": {
        "created_at": "2024-11-21T15:32:25.960Z",
        "updated_at": "2024-11-21T15:32:25.960Z",
        "location_type": "city",
        "city": 71,
        "village": null,
        "latitude": "48.021100",
        "longitude": "37.596500",
        "location_name": "Селидове",
        "region_name": "Донецька область"
    }
},
{
    "model": "locations.location",
    "pk": 72,
    "fields": {
        "created_at": "2024-11-21T15:32:25.968Z",
        "updated_at": "2024-11-21T15:32:25.968Z",
        "location_type": "city",
        "city": 72,
        "village": null,
        "latitude": "48.872400",
        "longitude": "37.617200",
        "location_name": "Слов'янськ",
        "region_name": "Донецька область"
    }
},
{
    "model": "locations.location",
    "pk": 73,
    "fields": {
        "created_at": "2024-11-21T15:32:25.976Z",
        "updated_at": "2024-11-21T15:32:25.976Z",
        "location_type": "city",
        "city": 73,
        "village": null,
        "latitude": "48.013300",
        "longitude": "38.224100",
        "location_name": "Сніжне",
        "region_name": "Донецька область"
    }
},
{
    "model": "locations.location",
    "pk": 74,
    "fields": {
        "created_at": "2024-11-21T15:32:25.985Z",
        "updated_at": "2024-11-21T15:32:25.985Z",
        "location_type": "city",
        "city": 74,
        "village": null,
        "latitude": "48.193000",
        "longitude": "38.038900",
        "location_name": "Чистякове",
        "region_name": "Донецька область"
    }
},
{
    "model": "locations.location",
    "pk": 75,
    "fields": {
        "created_at": "2024-11-21T15:32:25.996Z",
        "updated_at": "2024-11-21T15:32:25.996Z",
        "location_type": "city",
        "city": 75,
        "village": null,
        "latitude": "48.060600",
        "longitude": "38.024900",
        "location_name": "Харцизьк",
        "region_name": "Донецька область"
    }
},
{
    "model": "locations.location",
    "pk": 76,
    "fields": {
        "created_at": "2024-11-21T15:32:26.003Z",
        "updated_at": "2024-11-21T15:32:26.003Z",
        "location_type": "city",
        "city": 76,
        "village": null,
        "latitude": "48.102100",
        "longitude": "38.111700",
        "location_name": "Шахтарськ",
        "region_name": "Донецька область"
    }
},
{
    "model": "locations.location",
    "pk": 77,
    "fields": {
        "created_at": "2024-11-21T15:32:26.013Z",
        "updated_at": "2024-11-21T15:32:26.013Z",
        "location_type": "city",
        "city": 77,
        "village": null,
        "latitude": "48.061400",
        "longitude": "37.775100",
        "location_name": "Ясинувата",
        "region_name": "Донецька область"
    }
},
{
    "model": "locations.location",
    "pk": 78,
    "fields": {
        "created_at": "2024-11-21T15:32:26.024Z",
        "updated_at": "2024-11-21T15:32:26.024Z",
        "location_type": "city",
        "city": 78,
        "village": null,
        "latitude": "50.250000",
        "longitude": "28.662400",
        "location_name": "Житомир",
        "region_name": "Житомирська область"
    }
},
{
    "model": "locations.location",
    "pk": 79,
    "fields": {
        "created_at": "2024-11-21T15:32:26.031Z",
        "updated_at": "2024-11-21T15:32:26.031Z",
        "location_type": "city",
        "city": 79,
        "village": null,
        "latitude": "49.896900",
        "longitude": "28.581900",
        "location_name": "Бердичів",
        "region_name": "Житомирська область"
    }
},
{
    "model": "locations.location",
    "pk": 80,
    "fields": {
        "created_at": "2024-11-21T15:32:26.040Z",
        "updated_at": "2024-11-21T15:32:26.040Z",
        "location_type": "city",
        "city": 80,
        "village": null,
        "latitude": "50.982700",
        "longitude": "28.593100",
        "location_name": "Коростень",
        "region_name": "Житомирська область"
    }
},
{
    "model": "locations.location",
    "pk": 81,
    "fields": {
        "created_at": "2024-11-21T15:32:26.048Z",
        "updated_at": "2024-11-21T15:32:26.048Z",
        "location_type": "city",
        "city": 81,
        "village": null,
        "latitude": "50.523400",
        "longitude": "27.614000",
        "location_name": "Новоград-Волинський",
        "region_name": "Житомирська область"
    }
},
{
    "model": "locations.location",
    "pk": 82,
    "fields": {
        "created_at": "2024-11-21T15:32:26.056Z",
        "updated_at": "2024-11-21T15:32:26.056Z",
        "location_type": "city",
        "city": 82,
        "village": null,
        "latitude": "50.582000",
        "longitude": "28.597700",
        "location_name": "Малин",
        "region_name": "Житомирська область"
    }
},
{
    "model": "locations.location",
    "pk": 83,
    "fields": {
        "created_at": "2024-11-21T15:32:26.064Z",
        "updated_at": "2024-11-21T15:32:26.064Z",
        "location_type": "city",
        "city": 83,
        "village": null,
        "latitude": "51.140000",
        "longitude": "28.792200",
        "location_name": "Овруч",
        "region_name": "Житомирська область"
    }
},
{
    "model": "locations.location",
    "pk": 84,
    "fields": {
        "created_at": "2024-11-21T15:32:26.072Z",
        "updated_at": "2024-11-21T15:32:26.072Z",
        "location_type": "city",
        "city": 84,
        "village": null,
        "latitude": "50.548300",
        "longitude": "29.061600",
        "location_name": "Радомишль",
        "region_name": "Житомирська область"
    }
},
{
    "model": "locations.location",
    "pk": 85,
    "fields": {
        "created_at": "2024-11-21T15:32:26.080Z",
        "updated_at": "2024-11-21T15:32:26.080Z",
        "location_type": "city",
        "city": 85,
        "village": null,
        "latitude": "50.398200",
        "longitude": "28.878600",
        "location_name": "Чуднів",
        "region_name": "Житомирська область"
    }
},
{
    "model": "locations.location",
    "pk": 86,
    "fields": {
        "created_at": "2024-11-21T15:32:26.088Z",
        "updated_at": "2024-11-21T15:32:26.088Z",
        "location_type": "city",
        "city": 86,
        "village": null,
        "latitude": "50.240600",
        "longitude": "28.562800",
        "location_name": "Андрушівка",
        "region_name": "Житомирська область"
    }
},
{
    "model": "locations.location",
    "pk": 87,
    "fields": {
        "created_at": "2024-11-21T15:32:26.098Z",
        "updated_at": "2024-11-21T15:32:26.098Z",
        "location_type": "city",
        "city": 87,
        "village": null,
        "latitude": "50.525100",
        "longitude": "28.418600",
        "location_name": "Пулин",
        "region_name": "Житомирська область"
    }
},
{
    "model": "locations.location",
    "pk": 88,
    "fields": {
        "created_at": "2024-11-21T15:32:26.108Z",
        "updated_at": "2024-11-21T15:32:26.108Z",
        "location_type": "city",
        "city": 88,
        "village": null,
        "latitude": "50.486100",
        "longitude": "28.969300",
        "location_name": "Баранівка",
        "region_name": "Житомирська область"
    }
},
{
    "model": "locations.location",
    "pk": 89,
    "fields": {
        "created_at": "2024-11-21T15:32:26.118Z",
        "updated_at": "2024-11-21T15:32:26.118Z",
        "location_type": "city",
        "city": 89,
        "village": null,
        "latitude": "50.942200",
        "longitude": "28.365300",
        "location_name": "Лугини",
        "region_name": "Житомирська область"
    }
},
{
    "model": "locations.location",
    "pk": 90,
    "fields": {
        "created_at": "2024-11-21T15:32:26.128Z",
        "updated_at": "2024-11-21T15:32:26.128Z",
        "location_type": "city",
        "city": 90,
        "village": null,
        "latitude": "50.298900",
        "longitude": "28.972700",
        "location_name": "Романів",
        "region_name": "Житомирська область"
    }
},
{
    "model": "locations.location",
    "pk": 91,
    "fields": {
        "created_at": "2024-11-21T15:32:26.140Z",
        "updated_at": "2024-11-21T15:32:26.140Z",
        "location_type": "city",
        "city": 91,
        "village": null,
        "latitude": "50.535800",
        "longitude": "28.428600",
        "location_name": "Черняхів",
        "region_name": "Житомирська область"
    }
},
{
    "model": "locations.location",
    "pk": 92,
    "fields": {
        "created_at": "2024-11-21T15:32:26.158Z",
        "updated_at": "2024-11-21T15:32:26.158Z",
        "location_type": "city",
        "city": 92,
        "village": null,
        "latitude": "48.202500",
        "longitude": "22.637500",
        "location_name": "Берегове",
        "region_name": "Закарпатська область"
    }
},
{
    "model": "locations.location",
    "pk": 93,
    "fields": {
        "created_at": "2024-11-21T15:32:26.171Z",
        "updated_at": "2024-11-21T15:32:26.171Z",
        "location_type": "city",
        "city": 93,
        "village": null,
        "latitude": "48.149700",
        "longitude": "23.025800",
        "location_name": "Виноградів",
        "region_name": "Закарпатська область"
    }
},
{
    "model": "locations.location",
    "pk": 94,
    "fields": {
        "created_at": "2024-11-21T15:32:26.183Z",
        "updated_at": "2024-11-21T15:32:26.183Z",
        "location_type": "city",
        "city": 94,
        "village": null,
        "latitude": "48.290000",
        "longitude": "22.651000",
        "location_name": "Дийда",
        "region_name": "Закарпатська область"
    }
},
{
    "model": "locations.location",
    "pk": 95,
    "fields": {
        "created_at": "2024-11-21T15:32:26.203Z",
        "updated_at": "2024-11-21T15:32:26.203Z",
        "location_type": "city",
        "city": 95,
        "village": null,
        "latitude": "48.317200",
        "longitude": "23.037500",
        "location_name": "Іршава",
        "region_name": "Закарпатська область"
    }
},
{
    "model": "locations.location",
    "pk": 96,
    "fields": {
        "created_at": "2024-11-21T15:32:26.214Z",
        "updated_at": "2024-11-21T15:32:26.214Z",
        "location_type": "city",
        "city": 96,
        "village": null,
        "latitude": "48.449700",
        "longitude": "22.713700",
        "location_name": "Мукачево",
        "region_name": "Закарпатська область"
    }
},
{
    "model": "locations.location",
    "pk": 97,
    "fields": {
        "created_at": "2024-11-21T15:32:26.226Z",
        "updated_at": "2024-11-21T15:32:26.226Z",
        "location_type": "city",
        "city": 97,
        "village": null,
        "latitude": "48.740300",
        "longitude": "22.473300",
        "location_name": "Перечин",
        "region_name": "Закарпатська область"
    }
},
{
    "model": "locations.location",
    "pk": 98,
    "fields": {
        "created_at": "2024-11-21T15:32:26.239Z",
        "updated_at": "2024-11-21T15:32:26.239Z",
        "location_type": "city",
        "city": 98,
        "village": null,
        "latitude": "48.050000",
        "longitude": "24.200000",
        "location_name": "Рахів",
        "region_name": "Закарпатська область"
    }
},
{
    "model": "locations.location",
    "pk": 99,
    "fields": {
        "created_at": "2024-11-21T15:32:26.251Z",
        "updated_at": "2024-11-21T15:32:26.251Z",
        "location_type": "city",
        "city": 99,
        "village": null,
        "latitude": "48.547200",
        "longitude": "22.986400",
        "location_name": "Свалява",
        "region_name": "Закарпатська область"
    }
},
{
    "model": "locations.location",
    "pk": 100,
    "fields": {
        "created_at": "2024-11-21T15:32:26.261Z",
        "updated_at": "2024-11-21T15:32:26.261Z",
        "location_type": "city",
        "city": 100,
        "village": null,
        "latitude": "48.016100",
        "longitude": "23.572000",
        "location_name": "Тячів",
        "region_name": "Закарпатська область"
    }
},
{
    "model": "locations.location",
    "pk": 101,
    "fields": {
        "created_at": "2024-11-21T15:32:26.268Z",
        "updated_at": "2024-11-21T15:32:26.268Z",
        "location_type": "city",
        "city": 101,
        "village": null,
        "latitude": "48.537400",
        "longitude": "23.236100",
        "location_name": "Міжгір'я",
        "region_name": "Закарпатська область"
    }
},
{
    "model": "locations.location",
    "pk": 102,
    "fields": {
        "created_at": "2024-11-21T15:32:26.277Z",
        "updated_at": "2024-11-21T15:32:26.277Z",
        "location_type": "city",
        "city": 102,
        "village": null,
        "latitude": "48.258500",
        "longitude": "22.424000",
        "location_name": "Порошково",
        "region_name": "Закарпатська область"
    }
},
{
    "model": "locations.location",
    "pk": 103,
    "fields": {
        "created_at": "2024-11-21T15:32:26.286Z",
        "updated_at": "2024-11-21T15:32:26.286Z",
        "location_type": "city",
        "city": 103,
        "village": null,
        "latitude": "48.331400",
        "longitude": "22.467200",
        "location_name": "Солотвино",
        "region_name": "Закарпатська область"
    }
},
{
    "model": "locations.location",
    "pk": 104,
    "fields": {
        "created_at": "2024-11-21T15:32:26.297Z",
        "updated_at": "2024-11-21T15:32:26.297Z",
        "location_type": "city",
        "city": 104,
        "village": null,
        "latitude": "48.624000",
        "longitude": "22.295000",
        "location_name": "Ужгород",
        "region_name": "Закарпатська область"
    }
},
{
    "model": "locations.location",
    "pk": 105,
    "fields": {
        "created_at": "2024-11-21T15:32:26.308Z",
        "updated_at": "2024-11-21T15:32:26.308Z",
        "location_type": "city",
        "city": 105,
        "village": null,
        "latitude": "48.174200",
        "longitude": "23.289700",
        "location_name": "Хуст",
        "region_name": "Закарпатська область"
    }
},
{
    "model": "locations.location",
    "pk": 106,
    "fields": {
        "created_at": "2024-11-21T15:32:26.319Z",
        "updated_at": "2024-11-21T15:32:26.319Z",
        "location_type": "city",
        "city": 106,
        "village": null,
        "latitude": "48.430800",
        "longitude": "22.212000",
        "location_name": "Чоп",
        "region_name": "Закарпатська область"
    }
},
{
    "model": "locations.location",
    "pk": 107,
    "fields": {
        "created_at": "2024-11-21T15:32:26.331Z",
        "updated_at": "2024-11-21T15:32:26.331Z",
        "location_type": "city",
        "city": 107,
        "village": null,
        "latitude": "46.759700",
        "longitude": "36.784400",
        "location_name": "Бердянськ",
        "region_name": "Запорізька область"
    }
},
{
    "model": "locations.location",
    "pk": 108,
    "fields": {
        "created_at": "2024-11-21T15:32:26.343Z",
        "updated_at": "2024-11-21T15:32:26.343Z",
        "location_type": "city",
        "city": 108,
        "village": null,
        "latitude": "47.434200",
        "longitude": "35.276500",
        "location_name": "Василівка",
        "region_name": "Запорізька область"
    }
},
{
    "model": "locations.location",
    "pk": 109,
    "fields": {
        "created_at": "2024-11-21T15:32:26.355Z",
        "updated_at": "2024-11-21T15:32:26.355Z",
        "location_type": "city",
        "city": 109,
        "village": null,
        "latitude": "47.944400",
        "longitude": "35.433100",
        "location_name": "Вільнянськ",
        "region_name": "Запорізька область"
    }
},
{
    "model": "locations.location",
    "pk": 110,
    "fields": {
        "created_at": "2024-11-21T15:32:26.365Z",
        "updated_at": "2024-11-21T15:32:26.365Z",
        "location_type": "city",
        "city": 110,
        "village": null,
        "latitude": "47.660400",
        "longitude": "36.281700",
        "location_name": "Гуляйполе",
        "region_name": "Запорізька область"
    }
},
{
    "model": "locations.location",
    "pk": 111,
    "fields": {
        "created_at": "2024-11-21T15:32:26.373Z",
        "updated_at": "2024-11-21T15:32:26.373Z",
        "location_type": "city",
        "city": 111,
        "village": null,
        "latitude": "47.382200",
        "longitude": "34.986900",
        "location_name": "Дніпрорудне",
        "region_name": "Запорізька область"
    }
},
{
    "model": "locations.location",
    "pk": 112,
    "fields": {
        "created_at": "2024-11-21T15:32:26.381Z",
        "updated_at": "2024-11-21T15:32:26.381Z",
        "location_type": "city",
        "city": 112,
        "village": null,
        "latitude": "47.499000",
        "longitude": "34.656100",
        "location_name": "Енергодар",
        "region_name": "Запорізька область"
    }
},
{
    "model": "locations.location",
    "pk": 113,
    "fields": {
        "created_at": "2024-11-21T15:32:26.389Z",
        "updated_at": "2024-11-21T15:32:26.389Z",
        "location_type": "city",
        "city": 113,
        "village": null,
        "latitude": "47.837800",
        "longitude": "35.138300",
        "location_name": "Запоріжжя",
        "region_name": "Запорізька область"
    }
},
{
    "model": "locations.location",
    "pk": 114,
    "fields": {
        "created_at": "2024-11-21T15:32:26.398Z",
        "updated_at": "2024-11-21T15:32:26.398Z",
        "location_type": "city",
        "city": 114,
        "village": null,
        "latitude": "47.463000",
        "longitude": "34.422800",
        "location_name": "Кам'янка-Дніпровська",
        "region_name": "Запорізька область"
    }
},
{
    "model": "locations.location",
    "pk": 115,
    "fields": {
        "created_at": "2024-11-21T15:32:26.406Z",
        "updated_at": "2024-11-21T15:32:26.406Z",
        "location_type": "city",
        "city": 115,
        "village": null,
        "latitude": "46.840400",
        "longitude": "35.359000",
        "location_name": "Мелітополь",
        "region_name": "Запорізька область"
    }
},
{
    "model": "locations.location",
    "pk": 116,
    "fields": {
        "created_at": "2024-11-21T15:32:26.415Z",
        "updated_at": "2024-11-21T15:32:26.415Z",
        "location_type": "city",
        "city": 116,
        "village": null,
        "latitude": "47.204400",
        "longitude": "35.596200",
        "location_name": "Молочанськ",
        "region_name": "Запорізька область"
    }
},
{
    "model": "locations.location",
    "pk": 117,
    "fields": {
        "created_at": "2024-11-21T15:32:26.422Z",
        "updated_at": "2024-11-21T15:32:26.422Z",
        "location_type": "city",
        "city": 117,
        "village": null,
        "latitude": "47.569400",
        "longitude": "35.777800",
        "location_name": "Оріхів",
        "region_name": "Запорізька область"
    }
},
{
    "model": "locations.location",
    "pk": 118,
    "fields": {
        "created_at": "2024-11-21T15:32:26.430Z",
        "updated_at": "2024-11-21T15:32:26.430Z",
        "location_type": "city",
        "city": 118,
        "village": null,
        "latitude": "47.475600",
        "longitude": "36.276100",
        "location_name": "Пологи",
        "region_name": "Запорізька область"
    }
},
{
    "model": "locations.location",
    "pk": 119,
    "fields": {
        "created_at": "2024-11-21T15:32:26.439Z",
        "updated_at": "2024-11-21T15:32:26.439Z",
        "location_type": "city",
        "city": 119,
        "village": null,
        "latitude": "46.718900",
        "longitude": "36.356700",
        "location_name": "Приморськ",
        "region_name": "Запорізька область"
    }
},
{
    "model": "locations.location",
    "pk": 120,
    "fields": {
        "created_at": "2024-11-21T15:32:26.445Z",
        "updated_at": "2024-11-21T15:32:26.445Z",
        "location_type": "city",
        "city": 120,
        "village": null,
        "latitude": "47.249000",
        "longitude": "35.703100",
        "location_name": "Токмак",
        "region_name": "Запорізька область"
    }
},
{
    "model": "locations.location",
    "pk": 121,
    "fields": {
        "created_at": "2024-11-21T15:32:26.457Z",
        "updated_at": "2024-11-21T15:32:26.457Z",
        "location_type": "city",
        "city": 121,
        "village": null,
        "latitude": "49.066900",
        "longitude": "23.851400",
        "location_name": "Олехів",
        "region_name": "Івано-Франківська область"
    }
},
{
    "model": "locations.location",
    "pk": 122,
    "fields": {
        "created_at": "2024-11-21T15:32:26.465Z",
        "updated_at": "2024-11-21T15:32:26.465Z",
        "location_type": "city",
        "city": 122,
        "village": null,
        "latitude": "49.070700",
        "longitude": "23.863700",
        "location_name": "Болехів",
        "region_name": "Івано-Франківська область"
    }
},
{
    "model": "locations.location",
    "pk": 123,
    "fields": {
        "created_at": "2024-11-21T15:32:26.473Z",
        "updated_at": "2024-11-21T15:32:26.473Z",
        "location_type": "city",
        "city": 123,
        "village": null,
        "latitude": "49.263100",
        "longitude": "24.628800",
        "location_name": "Бурштин",
        "region_name": "Івано-Франківська область"
    }
},
{
    "model": "locations.location",
    "pk": 124,
    "fields": {
        "created_at": "2024-11-21T15:32:26.481Z",
        "updated_at": "2024-11-21T15:32:26.481Z",
        "location_type": "city",
        "city": 124,
        "village": null,
        "latitude": "49.139500",
        "longitude": "24.731700",
        "location_name": "Галич",
        "region_name": "Івано-Франківська область"
    }
},
{
    "model": "locations.location",
    "pk": 125,
    "fields": {
        "created_at": "2024-11-21T15:32:26.489Z",
        "updated_at": "2024-11-21T15:32:26.489Z",
        "location_type": "city",
        "city": 125,
        "village": null,
        "latitude": "48.667500",
        "longitude": "25.500300",
        "location_name": "Городенка",
        "region_name": "Івано-Франківська область"
    }
},
{
    "model": "locations.location",
    "pk": 126,
    "fields": {
        "created_at": "2024-11-21T15:32:26.498Z",
        "updated_at": "2024-11-21T15:32:26.498Z",
        "location_type": "city",
        "city": 126,
        "village": null,
        "latitude": "48.980800",
        "longitude": "24.002500",
        "location_name": "Долина",
        "region_name": "Івано-Франківська область"
    }
},
{
    "model": "locations.location",
    "pk": 127,
    "fields": {
        "created_at": "2024-11-21T15:32:26.506Z",
        "updated_at": "2024-11-21T15:32:26.506Z",
        "location_type": "city",
        "city": 127,
        "village": null,
        "latitude": "48.922800",
        "longitude": "24.710600",
        "location_name": "Івано-Франківськ",
        "region_name": "Івано-Франківська область"
    }
},
{
    "model": "locations.location",
    "pk": 128,
    "fields": {
        "created_at": "2024-11-21T15:32:26.514Z",
        "updated_at": "2024-11-21T15:32:26.514Z",
        "location_type": "city",
        "city": 128,
        "village": null,
        "latitude": "49.044200",
        "longitude": "24.359700",
        "location_name": "Калуш",
        "region_name": "Івано-Франківська область"
    }
},
{
    "model": "locations.location",
    "pk": 129,
    "fields": {
        "created_at": "2024-11-21T15:32:26.522Z",
        "updated_at": "2024-11-21T15:32:26.522Z",
        "location_type": "city",
        "city": 129,
        "village": null,
        "latitude": "48.541700",
        "longitude": "25.038700",
        "location_name": "Коломия",
        "region_name": "Івано-Франківська область"
    }
},
{
    "model": "locations.location",
    "pk": 130,
    "fields": {
        "created_at": "2024-11-21T15:32:26.530Z",
        "updated_at": "2024-11-21T15:32:26.530Z",
        "location_type": "city",
        "city": 130,
        "village": null,
        "latitude": "48.314200",
        "longitude": "25.095300",
        "location_name": "Косів",
        "region_name": "Івано-Франківська область"
    }
},
{
    "model": "locations.location",
    "pk": 131,
    "fields": {
        "created_at": "2024-11-21T15:32:26.538Z",
        "updated_at": "2024-11-21T15:32:26.538Z",
        "location_type": "city",
        "city": 131,
        "village": null,
        "latitude": "48.630300",
        "longitude": "24.579200",
        "location_name": "Надвірна",
        "region_name": "Івано-Франківська область"
    }
},
{
    "model": "locations.location",
    "pk": 132,
    "fields": {
        "created_at": "2024-11-21T15:32:26.545Z",
        "updated_at": "2024-11-21T15:32:26.545Z",
        "location_type": "city",
        "city": 132,
        "village": null,
        "latitude": "49.412200",
        "longitude": "24.610000",
        "location_name": "Рогатин",
        "region_name": "Івано-Франківська область"
    }
},
{
    "model": "locations.location",
    "pk": 133,
    "fields": {
        "created_at": "2024-11-21T15:32:26.554Z",
        "updated_at": "2024-11-21T15:32:26.554Z",
        "location_type": "city",
        "city": 133,
        "village": null,
        "latitude": "48.451100",
        "longitude": "25.571100",
        "location_name": "Снятин",
        "region_name": "Івано-Франківська область"
    }
},
{
    "model": "locations.location",
    "pk": 134,
    "fields": {
        "created_at": "2024-11-21T15:32:26.561Z",
        "updated_at": "2024-11-21T15:32:26.561Z",
        "location_type": "city",
        "city": 134,
        "village": null,
        "latitude": "48.902000",
        "longitude": "24.847200",
        "location_name": "Тисмениця",
        "region_name": "Івано-Франківська область"
    }
},
{
    "model": "locations.location",
    "pk": 135,
    "fields": {
        "created_at": "2024-11-21T15:32:26.570Z",
        "updated_at": "2024-11-21T15:32:26.570Z",
        "location_type": "city",
        "city": 135,
        "village": null,
        "latitude": "48.855600",
        "longitude": "24.995600",
        "location_name": "Тлумач",
        "region_name": "Івано-Франківська область"
    }
},
{
    "model": "locations.location",
    "pk": 136,
    "fields": {
        "created_at": "2024-11-21T15:32:26.577Z",
        "updated_at": "2024-11-21T15:32:26.577Z",
        "location_type": "city",
        "city": 136,
        "village": null,
        "latitude": "48.460400",
        "longitude": "24.558500",
        "location_name": "Яремче",
        "region_name": "Івано-Франківська область"
    }
},
{
    "model": "locations.location",
    "pk": 137,
    "fields": {
        "created_at": "2024-11-21T15:32:26.589Z",
        "updated_at": "2024-11-21T15:32:26.589Z",
        "location_type": "city",
        "city": 137,
        "village": null,
        "latitude": "50.218100",
        "longitude": "30.281300",
        "location_name": "Боярка",
        "region_name": "Київська область"
    }
},
{
    "model": "locations.location",
    "pk": 138,
    "fields": {
        "created_at": "2024-11-21T15:32:26.597Z",
        "updated_at": "2024-11-21T15:32:26.597Z",
        "location_type": "city",
        "city": 138,
        "village": null,
        "latitude": "50.454200",
        "longitude": "30.723500",
        "location_name": "Бровари",
        "region_name": "Київська область"
    }
},
{
    "model": "locations.location",
    "pk": 139,
    "fields": {
        "created_at": "2024-11-21T15:32:26.605Z",
        "updated_at": "2024-11-21T15:32:26.605Z",
        "location_type": "city",
        "city": 139,
        "village": null,
        "latitude": "50.514100",
        "longitude": "30.218100",
        "location_name": "Буча",
        "region_name": "Київська область"
    }
},
{
    "model": "locations.location",
    "pk": 140,
    "fields": {
        "created_at": "2024-11-21T15:32:26.613Z",
        "updated_at": "2024-11-21T15:32:26.613Z",
        "location_type": "city",
        "city": 140,
        "village": null,
        "latitude": "50.375000",
        "longitude": "30.457200",
        "location_name": "Вишневе",
        "region_name": "Київська область"
    }
},
{
    "model": "locations.location",
    "pk": 141,
    "fields": {
        "created_at": "2024-11-21T15:32:26.621Z",
        "updated_at": "2024-11-21T15:32:26.621Z",
        "location_type": "city",
        "city": 141,
        "village": null,
        "latitude": "50.554500",
        "longitude": "30.666300",
        "location_name": "Вишгород",
        "region_name": "Київська область"
    }
},
{
    "model": "locations.location",
    "pk": 142,
    "fields": {
        "created_at": "2024-11-21T15:32:26.630Z",
        "updated_at": "2024-11-21T15:32:26.630Z",
        "location_type": "city",
        "city": 142,
        "village": null,
        "latitude": "50.507500",
        "longitude": "30.179000",
        "location_name": "Гостомель",
        "region_name": "Київська область"
    }
},
{
    "model": "locations.location",
    "pk": 143,
    "fields": {
        "created_at": "2024-11-21T15:32:26.637Z",
        "updated_at": "2024-11-21T15:32:26.637Z",
        "location_type": "city",
        "city": 143,
        "village": null,
        "latitude": "50.589000",
        "longitude": "30.599300",
        "location_name": "Димер",
        "region_name": "Київська область"
    }
},
{
    "model": "locations.location",
    "pk": 144,
    "fields": {
        "created_at": "2024-11-21T15:32:26.646Z",
        "updated_at": "2024-11-21T15:32:26.646Z",
        "location_type": "city",
        "city": 144,
        "village": null,
        "latitude": "50.534000",
        "longitude": "30.236600",
        "location_name": "Ірпінь",
        "region_name": "Київська область"
    }
},
{
    "model": "locations.location",
    "pk": 145,
    "fields": {
        "created_at": "2024-11-21T15:32:26.653Z",
        "updated_at": "2024-11-21T15:32:26.653Z",
        "location_type": "city",
        "city": 145,
        "village": null,
        "latitude": "50.095700",
        "longitude": "30.653500",
        "location_name": "Обухів",
        "region_name": "Київська область"
    }
},
{
    "model": "locations.location",
    "pk": 146,
    "fields": {
        "created_at": "2024-11-21T15:32:26.661Z",
        "updated_at": "2024-11-21T15:32:26.661Z",
        "location_type": "city",
        "city": 146,
        "village": null,
        "latitude": "49.707700",
        "longitude": "30.893900",
        "location_name": "Переяслав",
        "region_name": "Київська область"
    }
},
{
    "model": "locations.location",
    "pk": 147,
    "fields": {
        "created_at": "2024-11-21T15:32:26.669Z",
        "updated_at": "2024-11-21T15:32:26.669Z",
        "location_type": "city",
        "city": 147,
        "village": null,
        "latitude": "51.498000",
        "longitude": "30.183000",
        "location_name": "Славутич",
        "region_name": "Київська область"
    }
},
{
    "model": "locations.location",
    "pk": 148,
    "fields": {
        "created_at": "2024-11-21T15:32:26.677Z",
        "updated_at": "2024-11-21T15:32:26.677Z",
        "location_type": "city",
        "city": 148,
        "village": null,
        "latitude": "49.686400",
        "longitude": "29.778600",
        "location_name": "Тараща",
        "region_name": "Київська область"
    }
},
{
    "model": "locations.location",
    "pk": 149,
    "fields": {
        "created_at": "2024-11-21T15:32:26.685Z",
        "updated_at": "2024-11-21T15:32:26.685Z",
        "location_type": "city",
        "city": 149,
        "village": null,
        "latitude": "50.048900",
        "longitude": "29.893000",
        "location_name": "Фастів",
        "region_name": "Київська область"
    }
},
{
    "model": "locations.location",
    "pk": 150,
    "fields": {
        "created_at": "2024-11-21T15:32:26.693Z",
        "updated_at": "2024-11-21T15:32:26.694Z",
        "location_type": "city",
        "city": 150,
        "village": null,
        "latitude": "50.454000",
        "longitude": "30.679400",
        "location_name": "Яготин",
        "region_name": "Київська область"
    }
},
{
    "model": "locations.location",
    "pk": 151,
    "fields": {
        "created_at": "2024-11-21T15:32:26.701Z",
        "updated_at": "2024-11-21T15:32:26.701Z",
        "location_type": "city",
        "city": 151,
        "village": null,
        "latitude": "49.793900",
        "longitude": "30.603100",
        "location_name": "Кагарлик",
        "region_name": "Київська область"
    }
},
{
    "model": "locations.location",
    "pk": 152,
    "fields": {
        "created_at": "2024-11-21T15:32:26.709Z",
        "updated_at": "2024-11-21T15:32:26.709Z",
        "location_type": "city",
        "city": 152,
        "village": null,
        "latitude": "49.643700",
        "longitude": "30.891400",
        "location_name": "Ржищів",
        "region_name": "Київська область"
    }
},
{
    "model": "locations.location",
    "pk": 153,
    "fields": {
        "created_at": "2024-11-21T15:32:26.723Z",
        "updated_at": "2024-11-21T15:32:26.723Z",
        "location_type": "city",
        "city": 153,
        "village": null,
        "latitude": "48.330000",
        "longitude": "30.232200",
        "location_name": "Благовіщенське",
        "region_name": "Кіровоградська область"
    }
},
{
    "model": "locations.location",
    "pk": 154,
    "fields": {
        "created_at": "2024-11-21T15:32:26.730Z",
        "updated_at": "2024-11-21T15:32:26.730Z",
        "location_type": "city",
        "city": 154,
        "village": null,
        "latitude": "48.057800",
        "longitude": "32.158100",
        "location_name": "Бобринець",
        "region_name": "Кіровоградська область"
    }
},
{
    "model": "locations.location",
    "pk": 155,
    "fields": {
        "created_at": "2024-11-21T15:32:26.739Z",
        "updated_at": "2024-11-21T15:32:26.739Z",
        "location_type": "city",
        "city": 155,
        "village": null,
        "latitude": "48.341100",
        "longitude": "29.860600",
        "location_name": "Гайворон",
        "region_name": "Кіровоградська область"
    }
},
{
    "model": "locations.location",
    "pk": 156,
    "fields": {
        "created_at": "2024-11-21T15:32:26.747Z",
        "updated_at": "2024-11-21T15:32:26.747Z",
        "location_type": "city",
        "city": 156,
        "village": null,
        "latitude": "48.110800",
        "longitude": "32.764700",
        "location_name": "Долинська",
        "region_name": "Кіровоградська область"
    }
},
{
    "model": "locations.location",
    "pk": 157,
    "fields": {
        "created_at": "2024-11-21T15:32:26.755Z",
        "updated_at": "2024-11-21T15:32:26.755Z",
        "location_type": "city",
        "city": 157,
        "village": null,
        "latitude": "48.713700",
        "longitude": "32.673300",
        "location_name": "Знам'янка",
        "region_name": "Кіровоградська область"
    }
},
{
    "model": "locations.location",
    "pk": 158,
    "fields": {
        "created_at": "2024-11-21T15:32:26.763Z",
        "updated_at": "2024-11-21T15:32:26.763Z",
        "location_type": "city",
        "city": 158,
        "village": null,
        "latitude": "48.510000",
        "longitude": "32.266700",
        "location_name": "Кропивницький",
        "region_name": "Кіровоградська область"
    }
},
{
    "model": "locations.location",
    "pk": 159,
    "fields": {
        "created_at": "2024-11-21T15:32:26.772Z",
        "updated_at": "2024-11-21T15:32:26.772Z",
        "location_type": "city",
        "city": 159,
        "village": null,
        "latitude": "48.640800",
        "longitude": "31.627200",
        "location_name": "Мала Виска",
        "region_name": "Кіровоградська область"
    }
},
{
    "model": "locations.location",
    "pk": 160,
    "fields": {
        "created_at": "2024-11-21T15:32:26.779Z",
        "updated_at": "2024-11-21T15:32:26.779Z",
        "location_type": "city",
        "city": 160,
        "village": null,
        "latitude": "48.780800",
        "longitude": "31.641900",
        "location_name": "Новомиргород",
        "region_name": "Кіровоградська область"
    }
},
{
    "model": "locations.location",
    "pk": 161,
    "fields": {
        "created_at": "2024-11-21T15:32:26.787Z",
        "updated_at": "2024-11-21T15:32:26.787Z",
        "location_type": "city",
        "city": 161,
        "village": null,
        "latitude": "48.316000",
        "longitude": "31.526400",
        "location_name": "Новоукраїнка",
        "region_name": "Кіровоградська область"
    }
},
{
    "model": "locations.location",
    "pk": 162,
    "fields": {
        "created_at": "2024-11-21T15:32:26.795Z",
        "updated_at": "2024-11-21T15:32:26.795Z",
        "location_type": "city",
        "city": 162,
        "village": null,
        "latitude": "48.668600",
        "longitude": "33.107500",
        "location_name": "Олександрія",
        "region_name": "Кіровоградська область"
    }
},
{
    "model": "locations.location",
    "pk": 163,
    "fields": {
        "created_at": "2024-11-21T15:32:26.803Z",
        "updated_at": "2024-11-21T15:32:26.803Z",
        "location_type": "city",
        "city": 163,
        "village": null,
        "latitude": "48.243300",
        "longitude": "31.406100",
        "location_name": "Помічна",
        "region_name": "Кіровоградська область"
    }
},
{
    "model": "locations.location",
    "pk": 164,
    "fields": {
        "created_at": "2024-11-21T15:32:26.811Z",
        "updated_at": "2024-11-21T15:32:26.811Z",
        "location_type": "city",
        "city": 164,
        "village": null,
        "latitude": "49.052500",
        "longitude": "33.205000",
        "location_name": "Світловодськ",
        "region_name": "Кіровоградська область"
    }
},
{
    "model": "locations.location",
    "pk": 165,
    "fields": {
        "created_at": "2024-11-21T15:32:26.823Z",
        "updated_at": "2024-11-21T15:32:26.823Z",
        "location_type": "city",
        "city": 165,
        "village": null,
        "latitude": "48.521700",
        "longitude": "38.579400",
        "location_name": "Мазна",
        "region_name": "Луганська область"
    }
},
{
    "model": "locations.location",
    "pk": 166,
    "fields": {
        "created_at": "2024-11-21T15:32:26.831Z",
        "updated_at": "2024-11-21T15:32:26.831Z",
        "location_type": "city",
        "city": 166,
        "village": null,
        "latitude": "48.525000",
        "longitude": "38.634400",
        "location_name": "Алмазна",
        "region_name": "Луганська область"
    }
},
{
    "model": "locations.location",
    "pk": 167,
    "fields": {
        "created_at": "2024-11-21T15:32:26.839Z",
        "updated_at": "2024-11-21T15:32:26.839Z",
        "location_type": "city",
        "city": 167,
        "village": null,
        "latitude": "48.468200",
        "longitude": "38.817600",
        "location_name": "Алчевськ",
        "region_name": "Луганська область"
    }
},
{
    "model": "locations.location",
    "pk": 168,
    "fields": {
        "created_at": "2024-11-21T15:32:26.848Z",
        "updated_at": "2024-11-21T15:32:26.848Z",
        "location_type": "city",
        "city": 168,
        "village": null,
        "latitude": "48.117100",
        "longitude": "39.084900",
        "location_name": "Антрацит",
        "region_name": "Луганська область"
    }
},
{
    "model": "locations.location",
    "pk": 169,
    "fields": {
        "created_at": "2024-11-21T15:32:26.856Z",
        "updated_at": "2024-11-21T15:32:26.856Z",
        "location_type": "city",
        "city": 169,
        "village": null,
        "latitude": "48.479200",
        "longitude": "38.789400",
        "location_name": "Боково-Хрустальне",
        "region_name": "Луганська область"
    }
},
{
    "model": "locations.location",
    "pk": 170,
    "fields": {
        "created_at": "2024-11-21T15:32:26.864Z",
        "updated_at": "2024-11-21T15:32:26.864Z",
        "location_type": "city",
        "city": 170,
        "village": null,
        "latitude": "48.484700",
        "longitude": "38.677800",
        "location_name": "Брянка",
        "region_name": "Луганська область"
    }
},
{
    "model": "locations.location",
    "pk": 171,
    "fields": {
        "created_at": "2024-11-21T15:32:26.871Z",
        "updated_at": "2024-11-21T15:32:26.871Z",
        "location_type": "city",
        "city": 171,
        "village": null,
        "latitude": "48.071400",
        "longitude": "39.798200",
        "location_name": "Вознесенівка",
        "region_name": "Луганська область"
    }
},
{
    "model": "locations.location",
    "pk": 172,
    "fields": {
        "created_at": "2024-11-21T15:32:26.880Z",
        "updated_at": "2024-11-21T15:32:26.880Z",
        "location_type": "city",
        "city": 172,
        "village": null,
        "latitude": "48.751900",
        "longitude": "38.495000",
        "location_name": "Гірське",
        "region_name": "Луганська область"
    }
},
{
    "model": "locations.location",
    "pk": 173,
    "fields": {
        "created_at": "2024-11-21T15:32:26.888Z",
        "updated_at": "2024-11-21T15:32:26.888Z",
        "location_type": "city",
        "city": 173,
        "village": null,
        "latitude": "48.637500",
        "longitude": "38.643300",
        "location_name": "Голубівка",
        "region_name": "Луганська область"
    }
},
{
    "model": "locations.location",
    "pk": 174,
    "fields": {
        "created_at": "2024-11-21T15:32:26.895Z",
        "updated_at": "2024-11-21T15:32:26.895Z",
        "location_type": "city",
        "city": 174,
        "village": null,
        "latitude": "48.058300",
        "longitude": "39.658300",
        "location_name": "Довжанськ",
        "region_name": "Луганська область"
    }
},
{
    "model": "locations.location",
    "pk": 175,
    "fields": {
        "created_at": "2024-11-21T15:32:26.903Z",
        "updated_at": "2024-11-21T15:32:26.903Z",
        "location_type": "city",
        "city": 175,
        "village": null,
        "latitude": "48.591100",
        "longitude": "38.919700",
        "location_name": "Зимогір'я",
        "region_name": "Луганська область"
    }
},
{
    "model": "locations.location",
    "pk": 176,
    "fields": {
        "created_at": "2024-11-21T15:32:26.912Z",
        "updated_at": "2024-11-21T15:32:26.912Z",
        "location_type": "city",
        "city": 176,
        "village": null,
        "latitude": "48.692800",
        "longitude": "38.519400",
        "location_name": "Золоте",
        "region_name": "Луганська область"
    }
},
{
    "model": "locations.location",
    "pk": 177,
    "fields": {
        "created_at": "2024-11-21T15:32:26.919Z",
        "updated_at": "2024-11-21T15:32:26.919Z",
        "location_type": "city",
        "city": 177,
        "village": null,
        "latitude": "48.414500",
        "longitude": "38.618500",
        "location_name": "Зоринськ",
        "region_name": "Луганська область"
    }
},
{
    "model": "locations.location",
    "pk": 178,
    "fields": {
        "created_at": "2024-11-21T15:32:26.928Z",
        "updated_at": "2024-11-21T15:32:26.928Z",
        "location_type": "city",
        "city": 178,
        "village": null,
        "latitude": "48.596700",
        "longitude": "38.582800",
        "location_name": "Ірміно",
        "region_name": "Луганська область"
    }
},
{
    "model": "locations.location",
    "pk": 179,
    "fields": {
        "created_at": "2024-11-21T15:32:26.935Z",
        "updated_at": "2024-11-21T15:32:26.935Z",
        "location_type": "city",
        "city": 179,
        "village": null,
        "latitude": "48.568000",
        "longitude": "38.658700",
        "location_name": "Кадіївка",
        "region_name": "Луганська область"
    }
},
{
    "model": "locations.location",
    "pk": 180,
    "fields": {
        "created_at": "2024-11-21T15:32:26.944Z",
        "updated_at": "2024-11-21T15:32:26.944Z",
        "location_type": "city",
        "city": 180,
        "village": null,
        "latitude": "48.438900",
        "longitude": "38.717500",
        "location_name": "Кипуче",
        "region_name": "Луганська область"
    }
},
{
    "model": "locations.location",
    "pk": 181,
    "fields": {
        "created_at": "2024-11-21T15:32:26.951Z",
        "updated_at": "2024-11-21T15:32:26.952Z",
        "location_type": "city",
        "city": 181,
        "village": null,
        "latitude": "49.050000",
        "longitude": "38.221100",
        "location_name": "Кремінна",
        "region_name": "Луганська область"
    }
},
{
    "model": "locations.location",
    "pk": 182,
    "fields": {
        "created_at": "2024-11-21T15:32:26.960Z",
        "updated_at": "2024-11-21T15:32:26.960Z",
        "location_type": "city",
        "city": 182,
        "village": null,
        "latitude": "48.889900",
        "longitude": "38.431700",
        "location_name": "Лисичанськ",
        "region_name": "Луганська область"
    }
},
{
    "model": "locations.location",
    "pk": 183,
    "fields": {
        "created_at": "2024-11-21T15:32:26.969Z",
        "updated_at": "2024-11-21T15:32:26.969Z",
        "location_type": "city",
        "city": 183,
        "village": null,
        "latitude": "48.568500",
        "longitude": "39.308600",
        "location_name": "Луганськ",
        "region_name": "Луганська область"
    }
},
{
    "model": "locations.location",
    "pk": 184,
    "fields": {
        "created_at": "2024-11-21T15:32:26.977Z",
        "updated_at": "2024-11-21T15:32:26.977Z",
        "location_type": "city",
        "city": 184,
        "village": null,
        "latitude": "48.401900",
        "longitude": "39.210300",
        "location_name": "Лутугине",
        "region_name": "Луганська область"
    }
},
{
    "model": "locations.location",
    "pk": 185,
    "fields": {
        "created_at": "2024-11-21T15:32:26.985Z",
        "updated_at": "2024-11-21T15:32:26.985Z",
        "location_type": "city",
        "city": 185,
        "village": null,
        "latitude": "48.072500",
        "longitude": "38.900000",
        "location_name": "Міусинськ",
        "region_name": "Луганська область"
    }
},
{
    "model": "locations.location",
    "pk": 186,
    "fields": {
        "created_at": "2024-11-21T15:32:26.994Z",
        "updated_at": "2024-11-21T15:32:26.994Z",
        "location_type": "city",
        "city": 186,
        "village": null,
        "latitude": "48.966700",
        "longitude": "38.350000",
        "location_name": "Новодружеськ",
        "region_name": "Луганська область"
    }
},
{
    "model": "locations.location",
    "pk": 187,
    "fields": {
        "created_at": "2024-11-21T15:32:27.002Z",
        "updated_at": "2024-11-21T15:32:27.002Z",
        "location_type": "city",
        "city": 187,
        "village": null,
        "latitude": "48.579800",
        "longitude": "39.197600",
        "location_name": "Олександрівськ",
        "region_name": "Луганська область"
    }
},
{
    "model": "locations.location",
    "pk": 188,
    "fields": {
        "created_at": "2024-11-21T15:32:27.009Z",
        "updated_at": "2024-11-21T15:32:27.009Z",
        "location_type": "city",
        "city": 188,
        "village": null,
        "latitude": "48.344400",
        "longitude": "39.658300",
        "location_name": "Отаманівка",
        "region_name": "Луганська область"
    }
},
{
    "model": "locations.location",
    "pk": 189,
    "fields": {
        "created_at": "2024-11-21T15:32:27.018Z",
        "updated_at": "2024-11-21T15:32:27.018Z",
        "location_type": "city",
        "city": 189,
        "village": null,
        "latitude": "48.435600",
        "longitude": "38.817200",
        "location_name": "Перевальськ",
        "region_name": "Луганська область"
    }
},
{
    "model": "locations.location",
    "pk": 190,
    "fields": {
        "created_at": "2024-11-21T15:32:27.027Z",
        "updated_at": "2024-11-21T15:32:27.027Z",
        "location_type": "city",
        "city": 190,
        "village": null,
        "latitude": "48.300000",
        "longitude": "38.878100",
        "location_name": "Петрово-Красносілля",
        "region_name": "Луганська область"
    }
},
{
    "model": "locations.location",
    "pk": 191,
    "fields": {
        "created_at": "2024-11-21T15:32:27.036Z",
        "updated_at": "2024-11-21T15:32:27.036Z",
        "location_type": "city",
        "city": 191,
        "village": null,
        "latitude": "48.634300",
        "longitude": "38.380000",
        "location_name": "Попасна",
        "region_name": "Луганська область"
    }
},
{
    "model": "locations.location",
    "pk": 192,
    "fields": {
        "created_at": "2024-11-21T15:32:27.044Z",
        "updated_at": "2024-11-21T15:32:27.044Z",
        "location_type": "city",
        "city": 192,
        "village": null,
        "latitude": "48.999700",
        "longitude": "38.294700",
        "location_name": "Привілля",
        "region_name": "Луганська область"
    }
},
{
    "model": "locations.location",
    "pk": 193,
    "fields": {
        "created_at": "2024-11-21T15:32:27.052Z",
        "updated_at": "2024-11-21T15:32:27.052Z",
        "location_type": "city",
        "city": 193,
        "village": null,
        "latitude": "48.071200",
        "longitude": "39.342700",
        "location_name": "Ровеньки",
        "region_name": "Луганська область"
    }
},
{
    "model": "locations.location",
    "pk": 194,
    "fields": {
        "created_at": "2024-11-21T15:32:27.061Z",
        "updated_at": "2024-11-21T15:32:27.061Z",
        "location_type": "city",
        "city": 194,
        "village": null,
        "latitude": "49.018700",
        "longitude": "38.381700",
        "location_name": "Рубіжне",
        "region_name": "Луганська область"
    }
},
{
    "model": "locations.location",
    "pk": 195,
    "fields": {
        "created_at": "2024-11-21T15:32:27.069Z",
        "updated_at": "2024-11-21T15:32:27.069Z",
        "location_type": "city",
        "city": 195,
        "village": null,
        "latitude": "49.409200",
        "longitude": "38.161900",
        "location_name": "Сватове",
        "region_name": "Луганська область"
    }
},
{
    "model": "locations.location",
    "pk": 196,
    "fields": {
        "created_at": "2024-11-21T15:32:27.077Z",
        "updated_at": "2024-11-21T15:32:27.077Z",
        "location_type": "city",
        "city": 196,
        "village": null,
        "latitude": "48.956500",
        "longitude": "38.480300",
        "location_name": "Сіверськодонецьк",
        "region_name": "Луганська область"
    }
},
{
    "model": "locations.location",
    "pk": 197,
    "fields": {
        "created_at": "2024-11-21T15:32:27.086Z",
        "updated_at": "2024-11-21T15:32:27.086Z",
        "location_type": "city",
        "city": 197,
        "village": null,
        "latitude": "48.299200",
        "longitude": "39.749800",
        "location_name": "Сорокине",
        "region_name": "Луганська область"
    }
},
{
    "model": "locations.location",
    "pk": 198,
    "fields": {
        "created_at": "2024-11-21T15:32:27.094Z",
        "updated_at": "2024-11-21T15:32:27.094Z",
        "location_type": "city",
        "city": 198,
        "village": null,
        "latitude": "48.629800",
        "longitude": "38.562000",
        "location_name": "Сокологірськ",
        "region_name": "Луганська область"
    }
},
{
    "model": "locations.location",
    "pk": 199,
    "fields": {
        "created_at": "2024-11-21T15:32:27.102Z",
        "updated_at": "2024-11-21T15:32:27.102Z",
        "location_type": "city",
        "city": 199,
        "village": null,
        "latitude": "49.283300",
        "longitude": "38.916700",
        "location_name": "Старобільськ",
        "region_name": "Луганська область"
    }
},
{
    "model": "locations.location",
    "pk": 200,
    "fields": {
        "created_at": "2024-11-21T15:32:27.110Z",
        "updated_at": "2024-11-21T15:32:27.110Z",
        "location_type": "city",
        "city": 200,
        "village": null,
        "latitude": "48.353700",
        "longitude": "39.721700",
        "location_name": "Суходільськ",
        "region_name": "Луганська область"
    }
},
{
    "model": "locations.location",
    "pk": 201,
    "fields": {
        "created_at": "2024-11-21T15:32:27.119Z",
        "updated_at": "2024-11-21T15:32:27.119Z",
        "location_type": "city",
        "city": 201,
        "village": null,
        "latitude": "48.127200",
        "longitude": "38.919200",
        "location_name": "Хрустальний",
        "region_name": "Луганська область"
    }
},
{
    "model": "locations.location",
    "pk": 202,
    "fields": {
        "created_at": "2024-11-21T15:32:27.126Z",
        "updated_at": "2024-11-21T15:32:27.126Z",
        "location_type": "city",
        "city": 202,
        "village": null,
        "latitude": "48.738200",
        "longitude": "39.230600",
        "location_name": "Щастя",
        "region_name": "Луганська область"
    }
},
{
    "model": "locations.location",
    "pk": 203,
    "fields": {
        "created_at": "2024-11-21T15:32:27.139Z",
        "updated_at": "2024-11-21T15:32:27.139Z",
        "location_type": "city",
        "city": 203,
        "village": null,
        "latitude": "50.380000",
        "longitude": "24.001700",
        "location_name": "Белз",
        "region_name": "Львівська область"
    }
},
{
    "model": "locations.location",
    "pk": 204,
    "fields": {
        "created_at": "2024-11-21T15:32:27.146Z",
        "updated_at": "2024-11-21T15:32:27.146Z",
        "location_type": "city",
        "city": 204,
        "village": null,
        "latitude": "49.635800",
        "longitude": "24.293600",
        "location_name": "Бібрка",
        "region_name": "Львівська область"
    }
},
{
    "model": "locations.location",
    "pk": 205,
    "fields": {
        "created_at": "2024-11-21T15:32:27.154Z",
        "updated_at": "2024-11-21T15:32:27.154Z",
        "location_type": "city",
        "city": 205,
        "village": null,
        "latitude": "49.289200",
        "longitude": "23.418900",
        "location_name": "Борислав",
        "region_name": "Львівська область"
    }
},
{
    "model": "locations.location",
    "pk": 206,
    "fields": {
        "created_at": "2024-11-21T15:32:27.163Z",
        "updated_at": "2024-11-21T15:32:27.163Z",
        "location_type": "city",
        "city": 206,
        "village": null,
        "latitude": "50.078100",
        "longitude": "25.154200",
        "location_name": "Броди",
        "region_name": "Львівська область"
    }
},
{
    "model": "locations.location",
    "pk": 207,
    "fields": {
        "created_at": "2024-11-21T15:32:27.170Z",
        "updated_at": "2024-11-21T15:32:27.170Z",
        "location_type": "city",
        "city": 207,
        "village": null,
        "latitude": "49.968300",
        "longitude": "24.608300",
        "location_name": "Буськ",
        "region_name": "Львівська область"
    }
},
{
    "model": "locations.location",
    "pk": 208,
    "fields": {
        "created_at": "2024-11-21T15:32:27.180Z",
        "updated_at": "2024-11-21T15:32:27.180Z",
        "location_type": "city",
        "city": 208,
        "village": null,
        "latitude": "50.240000",
        "longitude": "24.139400",
        "location_name": "Великі Мости",
        "region_name": "Львівська область"
    }
},
{
    "model": "locations.location",
    "pk": 209,
    "fields": {
        "created_at": "2024-11-21T15:32:27.187Z",
        "updated_at": "2024-11-21T15:32:27.187Z",
        "location_type": "city",
        "city": 209,
        "village": null,
        "latitude": "49.815600",
        "longitude": "24.129700",
        "location_name": "Винники",
        "region_name": "Львівська область"
    }
},
{
    "model": "locations.location",
    "pk": 210,
    "fields": {
        "created_at": "2024-11-21T15:32:27.197Z",
        "updated_at": "2024-11-21T15:32:27.197Z",
        "location_type": "city",
        "city": 210,
        "village": null,
        "latitude": "49.824700",
        "longitude": "24.516100",
        "location_name": "Глиняни",
        "region_name": "Львівська область"
    }
},
{
    "model": "locations.location",
    "pk": 211,
    "fields": {
        "created_at": "2024-11-21T15:32:27.209Z",
        "updated_at": "2024-11-21T15:32:27.209Z",
        "location_type": "city",
        "city": 211,
        "village": null,
        "latitude": "49.785400",
        "longitude": "23.676400",
        "location_name": "Городок",
        "region_name": "Львівська область"
    }
},
{
    "model": "locations.location",
    "pk": 212,
    "fields": {
        "created_at": "2024-11-21T15:32:27.218Z",
        "updated_at": "2024-11-21T15:32:27.218Z",
        "location_type": "city",
        "city": 212,
        "village": null,
        "latitude": "49.570600",
        "longitude": "22.789500",
        "location_name": "Добромиль",
        "region_name": "Львівська область"
    }
},
{
    "model": "locations.location",
    "pk": 213,
    "fields": {
        "created_at": "2024-11-21T15:32:27.226Z",
        "updated_at": "2024-11-21T15:32:27.226Z",
        "location_type": "city",
        "city": 213,
        "village": null,
        "latitude": "49.350000",
        "longitude": "23.500000",
        "location_name": "Дрогобич",
        "region_name": "Львівська область"
    }
},
{
    "model": "locations.location",
    "pk": 214,
    "fields": {
        "created_at": "2024-11-21T15:32:27.236Z",
        "updated_at": "2024-11-21T15:32:27.236Z",
        "location_type": "city",
        "city": 214,
        "village": null,
        "latitude": "49.896100",
        "longitude": "24.092500",
        "location_name": "Дубляни",
        "region_name": "Львівська область"
    }
},
{
    "model": "locations.location",
    "pk": 215,
    "fields": {
        "created_at": "2024-11-21T15:32:27.244Z",
        "updated_at": "2024-11-21T15:32:27.244Z",
        "location_type": "city",
        "city": 215,
        "village": null,
        "latitude": "49.385000",
        "longitude": "24.144400",
        "location_name": "Жидачів",
        "region_name": "Львівська область"
    }
},
{
    "model": "locations.location",
    "pk": 216,
    "fields": {
        "created_at": "2024-11-21T15:32:27.253Z",
        "updated_at": "2024-11-21T15:32:27.253Z",
        "location_type": "city",
        "city": 216,
        "village": null,
        "latitude": "50.055000",
        "longitude": "23.976000",
        "location_name": "Жовква",
        "region_name": "Львівська область"
    }
},
{
    "model": "locations.location",
    "pk": 217,
    "fields": {
        "created_at": "2024-11-21T15:32:27.262Z",
        "updated_at": "2024-11-21T15:32:27.262Z",
        "location_type": "city",
        "city": 217,
        "village": null,
        "latitude": "49.804400",
        "longitude": "24.890300",
        "location_name": "Золочів",
        "region_name": "Львівська область"
    }
},
{
    "model": "locations.location",
    "pk": 218,
    "fields": {
        "created_at": "2024-11-21T15:32:27.270Z",
        "updated_at": "2024-11-21T15:32:27.270Z",
        "location_type": "city",
        "city": 218,
        "village": null,
        "latitude": "50.105000",
        "longitude": "24.337700",
        "location_name": "Кам'янка-Бузька",
        "region_name": "Львівська область"
    }
},
{
    "model": "locations.location",
    "pk": 219,
    "fields": {
        "created_at": "2024-11-21T15:32:27.278Z",
        "updated_at": "2024-11-21T15:32:27.278Z",
        "location_type": "city",
        "city": 219,
        "village": null,
        "latitude": "49.630600",
        "longitude": "23.699700",
        "location_name": "Комарно",
        "region_name": "Львівська область"
    }
},
{
    "model": "locations.location",
    "pk": 220,
    "fields": {
        "created_at": "2024-11-21T15:32:27.287Z",
        "updated_at": "2024-11-21T15:32:27.287Z",
        "location_type": "city",
        "city": 220,
        "village": null,
        "latitude": "49.842200",
        "longitude": "24.031600",
        "location_name": "Львів",
        "region_name": "Львівська область"
    }
},
{
    "model": "locations.location",
    "pk": 221,
    "fields": {
        "created_at": "2024-11-21T15:32:27.295Z",
        "updated_at": "2024-11-21T15:32:27.295Z",
        "location_type": "city",
        "city": 221,
        "village": null,
        "latitude": "49.524700",
        "longitude": "23.978900",
        "location_name": "Миколаїв",
        "region_name": "Львівська область"
    }
},
{
    "model": "locations.location",
    "pk": 222,
    "fields": {
        "created_at": "2024-11-21T15:32:27.303Z",
        "updated_at": "2024-11-21T15:32:27.303Z",
        "location_type": "city",
        "city": 222,
        "village": null,
        "latitude": "49.154700",
        "longitude": "23.868600",
        "location_name": "Моршин",
        "region_name": "Львівська область"
    }
},
{
    "model": "locations.location",
    "pk": 223,
    "fields": {
        "created_at": "2024-11-21T15:32:27.312Z",
        "updated_at": "2024-11-21T15:32:27.312Z",
        "location_type": "city",
        "city": 223,
        "village": null,
        "latitude": "49.791700",
        "longitude": "23.152500",
        "location_name": "Мостиська",
        "region_name": "Львівська область"
    }
},
{
    "model": "locations.location",
    "pk": 224,
    "fields": {
        "created_at": "2024-11-21T15:32:27.323Z",
        "updated_at": "2024-11-21T15:32:27.323Z",
        "location_type": "city",
        "city": 224,
        "village": null,
        "latitude": "49.560600",
        "longitude": "23.304400",
        "location_name": "Новий Калинів",
        "region_name": "Львівська область"
    }
},
{
    "model": "locations.location",
    "pk": 225,
    "fields": {
        "created_at": "2024-11-21T15:32:27.332Z",
        "updated_at": "2024-11-21T15:32:27.332Z",
        "location_type": "city",
        "city": 225,
        "village": null,
        "latitude": "49.470300",
        "longitude": "24.134700",
        "location_name": "Новий Розділ",
        "region_name": "Львівська область"
    }
},
{
    "model": "locations.location",
    "pk": 226,
    "fields": {
        "created_at": "2024-11-21T15:32:27.342Z",
        "updated_at": "2024-11-21T15:32:27.342Z",
        "location_type": "city",
        "city": 226,
        "village": null,
        "latitude": "49.933100",
        "longitude": "23.571200",
        "location_name": "Новояворівськ",
        "region_name": "Львівська область"
    }
},
{
    "model": "locations.location",
    "pk": 227,
    "fields": {
        "created_at": "2024-11-21T15:32:27.352Z",
        "updated_at": "2024-11-21T15:32:27.352Z",
        "location_type": "city",
        "city": 227,
        "village": null,
        "latitude": "49.670600",
        "longitude": "24.556700",
        "location_name": "Перемишляни",
        "region_name": "Львівська область"
    }
},
{
    "model": "locations.location",
    "pk": 228,
    "fields": {
        "created_at": "2024-11-21T15:32:27.361Z",
        "updated_at": "2024-11-21T15:32:27.361Z",
        "location_type": "city",
        "city": 228,
        "village": null,
        "latitude": "49.720000",
        "longitude": "23.895000",
        "location_name": "Пустомити",
        "region_name": "Львівська область"
    }
},
{
    "model": "locations.location",
    "pk": 229,
    "fields": {
        "created_at": "2024-11-21T15:32:27.369Z",
        "updated_at": "2024-11-21T15:32:27.369Z",
        "location_type": "city",
        "city": 229,
        "village": null,
        "latitude": "50.224200",
        "longitude": "23.624200",
        "location_name": "Рава-Руська",
        "region_name": "Львівська область"
    }
},
{
    "model": "locations.location",
    "pk": 230,
    "fields": {
        "created_at": "2024-11-21T15:32:27.378Z",
        "updated_at": "2024-11-21T15:32:27.378Z",
        "location_type": "city",
        "city": 230,
        "village": null,
        "latitude": "50.277000",
        "longitude": "24.641700",
        "location_name": "Радехів",
        "region_name": "Львівська область"
    }
},
{
    "model": "locations.location",
    "pk": 231,
    "fields": {
        "created_at": "2024-11-21T15:32:27.388Z",
        "updated_at": "2024-11-21T15:32:27.388Z",
        "location_type": "city",
        "city": 231,
        "village": null,
        "latitude": "49.653000",
        "longitude": "23.487200",
        "location_name": "Рудки",
        "region_name": "Львівська область"
    }
},
{
    "model": "locations.location",
    "pk": 232,
    "fields": {
        "created_at": "2024-11-21T15:32:27.397Z",
        "updated_at": "2024-11-21T15:32:27.397Z",
        "location_type": "city",
        "city": 232,
        "village": null,
        "latitude": "49.516700",
        "longitude": "23.200000",
        "location_name": "Самбір",
        "region_name": "Львівська область"
    }
},
{
    "model": "locations.location",
    "pk": 233,
    "fields": {
        "created_at": "2024-11-21T15:32:27.405Z",
        "updated_at": "2024-11-21T15:32:27.405Z",
        "location_type": "city",
        "city": 233,
        "village": null,
        "latitude": "49.038900",
        "longitude": "23.514000",
        "location_name": "Сколе",
        "region_name": "Львівська область"
    }
},
{
    "model": "locations.location",
    "pk": 234,
    "fields": {
        "created_at": "2024-11-21T15:32:27.414Z",
        "updated_at": "2024-11-21T15:32:27.414Z",
        "location_type": "city",
        "city": 234,
        "village": null,
        "latitude": "50.480000",
        "longitude": "24.286100",
        "location_name": "Сокаль",
        "region_name": "Львівська область"
    }
},
{
    "model": "locations.location",
    "pk": 235,
    "fields": {
        "created_at": "2024-11-21T15:32:27.422Z",
        "updated_at": "2024-11-21T15:32:27.422Z",
        "location_type": "city",
        "city": 235,
        "village": null,
        "latitude": "49.788300",
        "longitude": "24.061700",
        "location_name": "Соснівка",
        "region_name": "Львівська область"
    }
},
{
    "model": "locations.location",
    "pk": 236,
    "fields": {
        "created_at": "2024-11-21T15:32:27.432Z",
        "updated_at": "2024-11-21T15:32:27.432Z",
        "location_type": "city",
        "city": 236,
        "village": null,
        "latitude": "49.441400",
        "longitude": "23.002300",
        "location_name": "Старий Самбір",
        "region_name": "Львівська область"
    }
},
{
    "model": "locations.location",
    "pk": 237,
    "fields": {
        "created_at": "2024-11-21T15:32:27.445Z",
        "updated_at": "2024-11-21T15:32:27.445Z",
        "location_type": "city",
        "city": 237,
        "village": null,
        "latitude": "49.296200",
        "longitude": "23.553100",
        "location_name": "Стебник",
        "region_name": "Львівська область"
    }
},
{
    "model": "locations.location",
    "pk": 238,
    "fields": {
        "created_at": "2024-11-21T15:32:27.454Z",
        "updated_at": "2024-11-21T15:32:27.454Z",
        "location_type": "city",
        "city": 238,
        "village": null,
        "latitude": "49.256200",
        "longitude": "23.850300",
        "location_name": "Стрий",
        "region_name": "Львівська область"
    }
},
{
    "model": "locations.location",
    "pk": 239,
    "fields": {
        "created_at": "2024-11-21T15:32:27.463Z",
        "updated_at": "2024-11-21T15:32:27.463Z",
        "location_type": "city",
        "city": 239,
        "village": null,
        "latitude": "49.992500",
        "longitude": "23.616400",
        "location_name": "Судова Вишня",
        "region_name": "Львівська область"
    }
},
{
    "model": "locations.location",
    "pk": 240,
    "fields": {
        "created_at": "2024-11-21T15:32:27.471Z",
        "updated_at": "2024-11-21T15:32:27.471Z",
        "location_type": "city",
        "city": 240,
        "village": null,
        "latitude": "49.277800",
        "longitude": "23.507800",
        "location_name": "Трускавець",
        "region_name": "Львівська область"
    }
},
{
    "model": "locations.location",
    "pk": 241,
    "fields": {
        "created_at": "2024-11-21T15:32:27.480Z",
        "updated_at": "2024-11-21T15:32:27.480Z",
        "location_type": "city",
        "city": 241,
        "village": null,
        "latitude": "49.157500",
        "longitude": "23.022500",
        "location_name": "Турка",
        "region_name": "Львівська область"
    }
},
{
    "model": "locations.location",
    "pk": 242,
    "fields": {
        "created_at": "2024-11-21T15:32:27.490Z",
        "updated_at": "2024-11-21T15:32:27.490Z",
        "location_type": "city",
        "city": 242,
        "village": null,
        "latitude": "50.368200",
        "longitude": "23.748900",
        "location_name": "Угнів",
        "region_name": "Львівська область"
    }
},
{
    "model": "locations.location",
    "pk": 243,
    "fields": {
        "created_at": "2024-11-21T15:32:27.499Z",
        "updated_at": "2024-11-21T15:32:27.499Z",
        "location_type": "city",
        "city": 243,
        "village": null,
        "latitude": "49.535700",
        "longitude": "22.854500",
        "location_name": "Хирів",
        "region_name": "Львівська область"
    }
},
{
    "model": "locations.location",
    "pk": 244,
    "fields": {
        "created_at": "2024-11-21T15:32:27.508Z",
        "updated_at": "2024-11-21T15:32:27.508Z",
        "location_type": "city",
        "city": 244,
        "village": null,
        "latitude": "49.405900",
        "longitude": "24.310400",
        "location_name": "Ходорів",
        "region_name": "Львівська область"
    }
},
{
    "model": "locations.location",
    "pk": 245,
    "fields": {
        "created_at": "2024-11-21T15:32:27.520Z",
        "updated_at": "2024-11-21T15:32:27.520Z",
        "location_type": "city",
        "city": 245,
        "village": null,
        "latitude": "50.386700",
        "longitude": "24.229000",
        "location_name": "Червоноград",
        "region_name": "Львівська область"
    }
},
{
    "model": "locations.location",
    "pk": 246,
    "fields": {
        "created_at": "2024-11-21T15:32:27.530Z",
        "updated_at": "2024-11-21T15:32:27.530Z",
        "location_type": "city",
        "city": 246,
        "village": null,
        "latitude": "49.939800",
        "longitude": "23.385800",
        "location_name": "Яворів",
        "region_name": "Львівська область"
    }
},
{
    "model": "locations.location",
    "pk": 247,
    "fields": {
        "created_at": "2024-11-21T15:32:27.545Z",
        "updated_at": "2024-11-21T15:32:27.546Z",
        "location_type": "city",
        "city": 247,
        "village": null,
        "latitude": "47.402800",
        "longitude": "32.444200",
        "location_name": "Баштанка",
        "region_name": "Миколаївська область"
    }
},